$GPGSV,4,1,16,25,67,091,36,31,52,291,32,04,08,025,32,02,28,060,29*71
$GPGSV,4,2,16,29,60,182,28,14,18,217,28,12,31,088,25,23,01,344,12*70
$GPGSV,4,3,16,30,11,275,,32,,,,28,,,,27,,,*44
$GPGSV,4,4,16,26,,,,24,,,,22,,,,21,,,*7F
$GPGGA,213438.7,5556.245215,N,00312.384407,W,1,06,2.2,73.3,M,48.0,M,,*71
$GPVTG,nan,T,nan,M,0.0,N,0.0,K,A*23
$GPRMC,213438.7,A,5556.245215,N,00312.384407,W,0.0,nan,160313,5.6,W,A*4D
$GPGSA,A,3,02,04,12,25,29,31,,,,,,,4.1,2.2,3.4*3B
$GPGSV,4,1,16,25,65,092,36,31,53,289,33,04,07,023,31,02,28,059,31*70
$GPGSV,4,2,16,29,61,181,28,14,18,217,27,12,29,090,23,23,02,344,12*78
$GPGSV,4,3,16,10,,,,30,13,275,,32,,,,28,,,*42
$GPGSV,4,4,16,27,,,,26,,,,24,,,,22,,,*79
$GPGGA,213439.7,5556.245216,N,00312.384405,W,1,06,2.2,73.3,M,48.0,M,,*71
$GPVTG,nan,T,nan,M,0.0,N,0.0,K,A*23
$GPRMC,213439.7,A,5556.245216,N,00312.384405,W,0.0,nan,160313,5.6,W,A*4D
$GPGSA,A,3,02,04,12,25,29,31,,,,,,,4.1,2.2,3.4*3B
$GPGSV,4,1,16,25,65,092,36,31,53,289,34,04,07,023,32,02,28,059,32*77
$GPGSV,4,2,16,29,61,181,31,14,18,217,26,12,29,090,24,23,02,344,12*76
$GPGSV,4,3,16,10,,,,30,13,275,,32,,,,28,,,*42
$GPGSV,4,4,16,27,,,,26,,,,24,,,,22,,,*79
$GPGGA,213440.7,5556.245232,N,00312.384395,W,1,06,2.2,73.3,M,48.0,M,,*77
$GPVTG,nan,T,nan,M,0.0,N,0.0,K,A*23
$GPRMC,213440.7,A,5556.245232,N,00312.384395,W,0.0,nan,160313,5.6,W,A*4B
$GPGSA,A,3,02,04,12,25,29,31,,,,,,,4.1,2.2,3.4*3B
$GPGSV,4,1,16,25,65,092,36,31,53,289,34,04,07,023,33,02,28,059,33*77
$GPGSV,4,2,16,29,61,181,31,14,18,217,24,12,29,090,20,23,02,344,12*70
$GPGSV,4,3,16,10,,,,30,13,275,,32,,,,28,,,*42
$GPGSV,4,4,16,27,,,,26,,,,24,,,,22,,,*79
$GPGGA,213441.7,5556.245244,N,00312.384384,W,1,06,2.2,73.4,M,48.0,M,,*70
$GPVTG,nan,T,nan,M,0.0,N,0.0,K,A*23
$GPRMC,213441.7,A,5556.245244,N,00312.384384,W,0.0,nan,160313,5.6,W,A*4B
$GPGSA,A,3,02,04,12,25,29,31,,,,,,,4.1,2.2,3.4*3B
$GPGSV,4,1,16,25,65,092,36,31,53,289,35,02,28,059,32,04,07,023,32*76
$GPGSV,4,2,16,29,61,181,31,14,18,217,26,12,29,090,20,23,02,344,12*72
$GPGSV,4,3,16,10,,,,30,13,275,,32,,,,28,,,*42
$GPGSV,4,4,16,27,,,,26,,,,24,,,,22,,,*79
$GPGGA,213442.7,5556.245258,N,00312.384363,W,1,06,2.2,73.4,M,48.0,M,,*77
$GPVTG,nan,T,nan,M,0.0,N,0.0,K,A*23
$GPRMC,213442.7,A,5556.245258,N,00312.384363,W,0.0,nan,160313,5.6,W,A*4C
$GPGSA,A,3,02,04,12,25,29,31,,,,,,,4.1,2.2,3.4*3B
$GPGSV,4,1,16,25,65,092,36,31,53,289,36,04,07,023,33,02,28,059,33*75
$GPGSV,4,2,16,29,61,181,29,14,18,217,26,12,29,090,22,23,02,344,12*79
$GPGSV,4,3,16,10,,,,30,13,275,,32,,,,28,,,*42
$GPGSV,4,4,16,27,,,,26,,,,24,,,,22,,,*79
$GPGGA,213443.7,5556.245273,N,00312.384327,W,1,06,2.2,73.4,M,48.0,M,,*7F
$GPVTG,nan,T,nan,M,0.0,N,0.0,K,A*23
$GPRMC,213443.7,A,5556.245273,N,00312.384327,W,0.0,nan,160313,5.6,W,A*44
$GPGSA,A,3,02,04,12,25,29,31,,,,,,,4.1,2.2,3.4*3B
$GPGSV,4,1,16,25,65,092,36,31,53,289,35,02,28,059,32,04,07,023,32*76
$GPGSV,4,2,16,29,61,181,29,14,18,217,28,12,29,090,22,23,02,344,12*77
$GPGSV,4,3,16,10,,,,30,13,275,,32,,,,28,,,*42
$GPGSV,4,4,16,27,,,,26,,,,24,,,,22,,,*79
$GPGGA,213444.7,5556.245281,N,00312.384295,W,1,06,2.2,73.4,M,48.0,M,,*7D
$GPVTG,nan,T,nan,M,0.0,N,0.0,K,A*23
$GPRMC,213444.7,A,5556.245281,N,00312.384295,W,0.0,nan,160313,5.6,W,A*46
$GPGSA,A,3,02,04,12,25,29,31,,,,,,,4.1,2.2,3.4*3B
$GPGSV,4,1,16,25,65,092,36,31,53,289,35,04,07,023,33,02,28,059,31*74
$GPGSV,4,2,16,29,61,181,29,14,18,217,27,12,29,090,27,23,02,344,12*7D
$GPGSV,4,3,16,10,,,,30,13,275,,32,,,,28,,,*42
$GPGSV,4,4,16,27,,,,26,,,,24,,,,22,,,*79
$GPGGA,213445.7,5556.245295,N,00312.384264,W,1,06,2.2,73.5,M,48.0,M,,*76
$GPVTG,nan,T,nan,M,0.0,N,0.0,K,A*23
$GPRMC,213445.7,A,5556.245295,N,00312.384264,W,0.0,nan,160313,5.6,W,A*4C
$GPGSA,A,3,02,04,12,25,29,31,,,,,,,4.1,2.2,3.4*3B
$GPGSV,4,1,16,31,53,289,35,25,65,092,34,04,07,023,32,02,28,059,28*7F
$GPGSV,4,2,16,29,61,181,27,14,18,217,25,12,29,090,24,23,02,344,12*72
$GPGSV,4,3,16,10,,,,30,13,275,,32,,,,28,,,*42
$GPGSV,4,4,16,27,,,,26,,,,24,,,,22,,,*79
$GPGGA,213446.7,5556.245310,N,00312.384234,W,1,06,2.2,73.5,M,48.0,M,,*7C
$GPVTG,nan,T,nan,M,0.0,N,0.0,K,A*23
$GPRMC,213446.7,A,5556.245310,N,00312.384234,W,0.0,nan,160313,5.6,W,A*46
$GPGSA,A,3,02,04,12,25,29,31,,,,,,,4.1,2.2,3.4*3B
$GPGSV,4,1,16,31,53,289,35,04,07,023,34,25,65,092,33,12,29,090,28*7B
$GPGSV,4,2,16,29,61,181,27,14,18,217,26,02,28,059,25,23,02,343,12*72
$GPGSV,4,3,16,10,,,,30,13,275,,32,,,,28,,,*42
$GPGSV,4,4,16,27,,,,26,,,,24,,,,22,,,*79
$GPGGA,213447.7,5556.245332,N,00312.384201,W,1,06,2.2,73.5,M,48.0,M,,*7B
$GPVTG,nan,T,nan,M,0.0,N,0.0,K,A*23
$GPRMC,213447.7,A,5556.245332,N,00312.384201,W,0.0,nan,160313,5.6,W,A*41
$GPGSA,A,3,02,04,12,25,29,31,,,,,,,4.1,2.2,3.4*3B
$GPGSV,4,1,16,31,53,289,35,25,65,092,34,04,07,023,33,14,18,217,26*7C
$GPGSV,4,2,16,02,28,059,26,12,29,090,25,29,61,181,25,23,02,343,12*79
$GPGSV,4,3,16,10,,,,30,13,275,,32,,,,28,,,*42
$GPGSV,4,4,16,27,,,,26,,,,24,,,,22,,,*79
$GPGGA,213448.7,5556.245345,N,00312.384165,W,1,06,2.2,73.6,M,48.0,M,,*76
$GPVTG,nan,T,nan,M,0.0,N,0.0,K,A*23
$GPRMC,213448.7,A,5556.245345,N,00312.384165,W,0.0,nan,160313,5.6,W,A*4F
$GPGSA,A,3,02,04,12,25,29,31,,,,,,,4.1,2.2,3.4*3B
$GPGSV,4,1,16,25,65,092,34,31,53,289,33,04,07,023,32,29,61,181,26*77
$GPGSV,4,2,16,02,28,059,26,14,18,217,25,12,29,090,25,23,02,343,12*75
$GPGSV,4,3,16,10,,,,30,13,275,,32,,,,28,,,*42
$GPGSV,4,4,16,27,,,,26,,,,24,,,,22,,,*79
$GPGGA,213449.7,5556.245357,N,00312.384142,W,1,06,2.3,73.6,M,48.0,M,,*70
$GPVTG,nan,T,nan,M,0.0,N,0.0,K,A*23
$GPRMC,213449.7,A,5556.245357,N,00312.384142,W,0.0,nan,160313,5.6,W,A*48
$GPGSA,A,3,02,04,12,25,29,31,,,,,,,4.1,2.3,3.4*3A
$GPGSV,4,1,16,25,65,092,33,31,53,289,33,04,07,023,30,29,61,181,30*75
$GPGSV,4,2,16,14,18,217,26,02,28,059,22,12,29,090,20,23,02,343,12*77
$GPGSV,4,3,16,10,,,,30,13,275,,32,,,,28,,,*42
$GPGSV,4,4,16,27,,,,26,,,,24,,,,22,,,*79
$GPGGA,213450.7,5556.248953,N,00312.383008,W,1,07,1.2,81.4,M,48.0,M,,*7F
$GPVTG,nan,T,nan,M,0.0,N,0.0,K,A*23
$GPRMC,213450.7,A,5556.248953,N,00312.383008,W,0.0,nan,160313,5.6,W,A*4B
$GPGSA,A,3,02,04,12,14,25,29,31,,,,,,1.9,1.2,1.5*33
$GPGSV,4,1,16,31,53,289,34,29,61,181,33,14,18,217,33,04,07,023,33*75
$GPGSV,4,2,16,02,28,059,32,12,29,090,31,25,65,092,30,23,02,343,12*76
$GPGSV,4,3,16,10,,,,30,13,275,,32,,,,28,,,*42
$GPGSV,4,4,16,27,,,,26,,,,24,,,,22,,,*79
$GPGGA,213451.7,5556.254399,N,00312.372528,W,1,07,1.2,96.9,M,48.0,M,,*7D
$GPVTG,104.5,T,110.1,M,0.3,N,0.6,K,A*27
$GPRMC,213451.7,A,5556.254399,N,00312.372528,W,0.3,104.5,160313,5.6,W,A*0E
$GPGSA,A,3,02,04,12,14,25,29,31,,,,,,1.9,1.2,1.5*33
$GPGSV,4,1,16,04,07,025,33,02,28,060,32,31,52,291,32,12,31,088,30*7C
$GPGSV,4,2,16,29,60,182,30,25,66,091,29,14,19,217,28,23,01,344,12*7A
$GPGSV,4,3,16,32,,,,28,,,,27,,,,26,,,*73
$GPGSV,4,4,16,24,,,,22,,,,21,,,,20,,,*79
$GPGGA,213452.7,5556.254474,N,00312.372361,W,1,07,1.2,97.7,M,48.0,M,,*7E
$GPVTG,223.2,T,228.8,M,0.6,N,1.1,K,A*24
$GPRMC,213452.7,A,5556.254474,N,00312.372361,W,0.6,223.2,160313,5.6,W,A*06
$GPGSA,A,3,02,04,12,14,25,29,31,,,,,,1.9,1.2,1.5*33
$GPGSV,4,1,16,14,18,217,35,31,53,289,34,02,28,059,34,04,07,023,33*74
$GPGSV,4,2,16,29,61,181,33,12,29,090,33,25,65,092,33,10,,,*43
$GPGSV,4,3,16,23,02,343,,32,,,,28,,,,27,,,*40
$GPGSV,4,4,16,26,,,,24,,,,22,,,,21,,,*7F
$GPGGA,213453.7,5556.255842,N,00312.371827,W,1,07,1.2,101.1,M,48.0,M,,*45
$GPVTG,21.0,T,26.6,M,1.2,N,2.2,K,A*21
$GPRMC,213453.7,A,5556.255842,N,00312.371827,W,1.2,21.0,160313,5.6,W,A*32
$GPGSA,A,3,02,04,12,14,25,29,31,,,,,,1.9,1.2,1.5*33
$GPGSV,4,1,16,25,65,092,35,04,07,023,35,02,28,059,33,31,53,289,33*75
$GPGSV,4,2,16,12,29,090,33,14,18,217,32,29,61,181,30,10,,,*46
$GPGSV,4,3,16,23,02,343,,32,,,,28,,,,27,,,*40
$GPGSV,4,4,16,26,,,,24,,,,22,,,,21,,,*7F
$GPGGA,213454.7,5556.255865,N,00312.371386,W,1,07,1.2,101.4,M,48.0,M,,*42
$GPVTG,34.9,T,40.5,M,0.8,N,1.5,K,A*20
$GPRMC,213454.7,A,5556.255865,N,00312.371386,W,0.8,34.9,160313,5.6,W,A*36
$GPGSA,A,3,02,04,12,14,25,29,31,,,,,,1.9,1.2,1.5*33
$GPGSV,4,1,16,04,07,023,33,31,53,289,32,25,65,092,32,29,61,181,30*76
$GPGSV,4,2,16,14,18,217,29,12,29,090,27,02,28,059,23,10,,,*4B
$GPGSV,4,3,16,23,02,343,,30,13,275,,32,,,,28,,,*74
$GPGSV,4,4,16,27,,,,26,,,,24,,,,22,,,*79
$GPGGA,213455.7,5556.256160,N,00312.371611,W,1,07,1.2,101.3,M,48.0,M,,*40
$GPVTG,22.7,T,28.3,M,0.7,N,1.2,K,A*29
$GPRMC,213455.7,A,5556.256160,N,00312.371611,W,0.7,22.7,160313,5.6,W,A*35
$GPGSA,A,3,02,04,12,14,25,29,31,,,,,,1.9,1.2,1.5*33
$GPGSV,4,1,16,14,19,217,34,25,66,091,32,04,07,025,32,29,60,182,31*7A
$GPGSV,4,2,16,31,52,291,28,02,28,060,28,12,31,088,27,23,01,344,*7E
$GPGSV,4,3,16,30,11,275,,32,,,,28,,,,27,,,*44
$GPGSV,4,4,16,26,,,,24,,,,22,,,,21,,,*7F
$GPGGA,213456.7,5556.256537,N,00312.371670,W,1,07,1.2,101.9,M,48.0,M,,*48
$GPVTG,43.7,T,49.3,M,0.5,N,0.9,K,A*21
$GPRMC,213456.7,A,5556.256537,N,00312.371670,W,0.5,43.7,160313,5.6,W,A*32
$GPGSA,A,3,02,04,12,14,25,29,31,,,,,,1.9,1.2,1.5*33
$GPGSV,4,1,16,04,07,023,35,25,65,092,32,31,53,289,32,14,18,217,32*7E
$GPGSV,4,2,16,12,29,090,32,29,61,181,29,02,28,059,24,10,,,*44
$GPGSV,4,3,16,23,02,343,,30,13,275,,32,,,,28,,,*74
$GPGSV,4,4,16,27,,,,26,,,,24,,,,22,,,*79
$GPGGA,213457.7,5556.256289,N,00312.372230,W,1,07,1.2,101.4,M,48.0,M,,*45
$GPVTG,33.6,T,39.2,M,0.3,N,0.5,K,A*2B
$GPRMC,213457.7,A,5556.256289,N,00312.372230,W,0.3,33.6,160313,5.6,W,A*32
$GPGSA,A,3,02,04,12,14,25,29,31,,,,,,1.9,1.2,1.5*33
$GPGSV,4,1,16,04,07,025,36,31,52,291,34,25,66,091,32,29,60,182,31*78
$GPGSV,4,2,16,02,28,060,30,14,19,217,29,12,31,088,27,23,01,344,*70
$GPGSV,4,3,16,30,11,275,,32,,,,28,,,,27,,,*44
$GPGSV,4,4,16,26,,,,24,,,,22,,,,21,,,*7F
$GPGGA,213458.7,5556.256423,N,00312.372265,W,1,07,1.2,101.8,M,48.0,M,,*40
$GPVTG,37.5,T,43.1,M,0.5,N,0.9,K,A*28
$GPRMC,213458.7,A,5556.256423,N,00312.372265,W,0.5,37.5,160313,5.6,W,A*3A
$GPGSA,A,3,02,04,12,14,25,29,31,,,,,,1.9,1.2,1.5*33
$GPGSV,4,1,16,04,07,023,34,14,18,217,34,31,53,289,31,12,29,090,31*77
$GPGSV,4,2,16,25,65,092,31,29,61,181,26,02,28,059,26,10,,,*44
$GPGSV,4,3,16,23,02,343,,30,13,275,,32,,,,28,,,*74
$GPGSV,4,4,16,27,,,,26,,,,24,,,,22,,,*79
$GPGGA,213459.7,5556.256542,N,00312.371853,W,1,07,1.2,101.4,M,48.0,M,,*47
$GPVTG,42.1,T,47.7,M,0.5,N,1.0,K,A*24
$GPRMC,213459.7,A,5556.256542,N,00312.371853,W,0.5,42.1,160313,5.6,W,A*37
$GPGSA,A,3,02,04,12,14,25,29,31,,,,,,1.9,1.2,1.5*33
$GPGSV,4,1,16,04,07,025,35,31,52,291,33,29,60,182,33,25,66,091,31*7D
$GPGSV,4,2,16,12,31,088,31,14,19,217,30,02,28,060,30,30,11,275,*7F
$GPGSV,4,3,16,32,,,,28,,,,27,,,,26,,,*73
$GPGSV,4,4,16,24,,,,22,,,,21,,,,20,,,*79
$GPGGA,213500.7,5556.256753,N,00312.371971,W,1,07,1.2,100.8,M,48.0,M,,*44
$GPVTG,nan,T,nan,M,0.0,N,0.0,K,A*23
$GPRMC,213500.7,A,5556.256753,N,00312.371971,W,0.0,nan,160313,5.6,W,A*44
$GPGSA,A,3,02,04,12,14,25,29,31,,,,,,1.9,1.2,1.5*33
$GPGSV,4,1,16,29,60,182,36,12,31,088,36,25,66,091,33,31,52,291,30*7F
$GPGSV,4,2,16,02,28,060,30,14,19,217,30,04,07,025,29,30,11,275,*73
$GPGSV,4,3,16,32,,,,28,,,,27,,,,26,,,*73
$GPGSV,4,4,16,24,,,,22,,,,21,,,,20,,,*79
$GPGGA,213501.7,5556.256712,N,00312.372049,W,1,07,1.2,100.8,M,48.0,M,,*41
$GPVTG,226.3,T,231.9,M,0.4,N,0.8,K,A*23
$GPRMC,213501.7,A,5556.256712,N,00312.372049,W,0.4,226.3,160313,5.6,W,A*0F
$GPGSA,A,3,02,04,12,14,25,29,31,,,,,,1.9,1.2,1.5*33
$GPGSV,4,1,16,12,29,090,38,29,61,181,35,04,07,023,34,25,65,092,33*79
$GPGSV,4,2,16,02,28,059,33,14,18,217,32,31,53,289,30,10,,,19*48
$GPGSV,4,3,16,30,13,275,,32,,,,28,,,,27,,,*46
$GPGSV,4,4,16,26,,,,24,,,,22,,,,21,,,*7F
$GPGGA,213502.7,5556.256763,N,00312.371710,W,1,07,1.2,100.7,M,48.0,M,,*43
$GPVTG,201.2,T,206.8,M,0.4,N,0.8,K,A*22
$GPRMC,213502.7,A,5556.256763,N,00312.371710,W,0.4,201.2,160313,5.6,W,A*06
$GPGSA,A,3,02,04,12,14,25,29,31,,,,,,1.9,1.2,1.5*33
$GPGSV,4,1,16,12,29,090,38,29,61,181,38,02,28,059,38,04,07,023,34*74
$GPGSV,4,2,16,25,65,092,34,14,18,217,32,31,53,289,27,10,,,19*42
$GPGSV,4,3,16,32,,,,28,,,,27,,,,26,,,*73
$GPGSV,4,4,16,24,,,,22,,,,21,,,,20,,,*79
$GPGGA,213503.7,5556.256541,N,00312.371175,W,1,07,1.2,101.3,M,48.0,M,,*40
$GPVTG,190.7,T,196.3,M,0.0,N,0.0,K,A*21
$GPRMC,213503.7,A,5556.256541,N,00312.371175,W,0.0,190.7,160313,5.6,W,A*0A
$GPGSA,A,3,02,04,12,14,25,29,31,,,,,,1.9,1.2,1.5*33
$GPGSV,4,1,16,29,61,181,38,12,29,090,38,02,28,059,37,04,07,023,35*7A
$GPGSV,4,2,16,25,65,092,32,14,18,217,31,31,53,289,29,10,,,19*49
$GPGSV,4,3,16,32,,,,28,,,,27,,,,26,,,*73
$GPGSV,4,4,16,24,,,,22,,,,21,,,,20,,,*79
$GPGGA,213504.7,5556.256187,N,00312.370909,W,1,07,1.2,102.8,M,48.0,M,,*43
$GPVTG,nan,T,nan,M,0.0,N,0.0,K,A*23
$GPRMC,213504.7,A,5556.256187,N,00312.370909,W,0.0,nan,160313,5.6,W,A*41
$GPGSA,A,3,02,04,12,14,25,29,31,,,,,,1.9,1.2,1.5*33
$GPGSV,4,1,16,12,29,090,37,29,61,181,36,25,65,092,34,02,28,059,34*74
$GPGSV,4,2,16,04,07,023,31,14,18,217,31,31,53,289,30,10,,,19*4F
$GPGSV,4,3,16,32,,,,28,,,,27,,,,26,,,*73
$GPGSV,4,4,16,24,,,,22,,,,21,,,,20,,,*79
$GPGGA,213505.7,5556.256242,N,00312.370750,W,1,07,1.2,102.7,M,48.0,M,,*45
$GPVTG,58.2,T,63.7,M,0.7,N,1.4,K,A*2C
$GPRMC,213505.7,A,5556.256242,N,00312.370750,W,0.7,58.2,160313,5.6,W,A*3F
$GPGSA,A,3,02,04,12,14,25,29,31,,,,,,1.9,1.2,1.5*33
$GPGSV,4,1,16,04,07,025,36,31,52,291,36,29,60,182,34,25,66,091,34*79
$GPGSV,4,2,16,12,31,088,32,02,28,060,31,14,19,217,29,23,01,344,*75
$GPGSV,4,3,16,32,,,,28,,,,27,,,,26,,,*73
$GPGSV,4,4,16,24,,,,22,,,,21,,,,20,,,*79
$GPGGA,213506.7,5556.256468,N,00312.369985,W,1,07,1.2,103.3,M,48.0,M,,*43
$GPVTG,50.3,T,55.9,M,1.4,N,2.7,K,A*2C
$GPRMC,213506.7,A,5556.256468,N,00312.369985,W,1.4,50.3,160313,5.6,W,A*37
$GPGSA,A,3,02,04,12,14,25,29,31,,,,,,1.9,1.2,1.5*33
$GPGSV,4,1,16,04,07,023,36,31,53,289,36,25,65,092,35,12,29,090,34*71
$GPGSV,4,2,16,02,28,059,33,29,61,181,32,14,18,217,28,10,,,*4A
$GPGSV,4,3,16,23,02,343,,30,13,275,,32,,,,28,,,*74
$GPGSV,4,4,16,27,,,,26,,,,24,,,,22,,,*79
$GPGGA,213507.7,5556.256423,N,00312.369189,W,1,07,1.2,103.3,M,48.0,M,,*49
$GPVTG,63.8,T,69.4,M,1.2,N,2.3,K,A*27
$GPRMC,213507.7,A,5556.256423,N,00312.369189,W,1.2,63.8,160313,5.6,W,A*30
$GPGSA,A,3,02,04,12,14,25,29,31,,,,,,1.9,1.2,1.5*33
$GPGSV,4,1,16,31,53,289,36,12,29,090,35,04,07,023,33,02,28,059,33*78
$GPGSV,4,2,16,25,65,092,33,14,18,217,31,29,61,181,29,10,,,*43
$GPGSV,4,3,16,23,02,343,,30,13,275,,32,,,,28,,,*74
$GPGSV,4,4,16,27,,,,26,,,,24,,,,22,,,*79
$GPGGA,213508.7,5556.256596,N,00312.368396,W,1,07,1.2,103.4,M,48.0,M,,*43
$GPVTG,48.6,T,54.2,M,1.3,N,2.4,K,A*2E
$GPRMC,213508.7,A,5556.256596,N,00312.368396,W,1.3,48.6,160313,5.6,W,A*3B
$GPGSA,A,3,02,04,12,14,25,29,31,,,,,,1.9,1.2,1.5*33
$GPGSV,4,1,16,04,07,023,36,25,65,092,35,31,53,289,34,02,28,059,33*71
$GPGSV,4,2,16,12,29,090,31,14,18,217,31,29,61,181,30,10,,,*47
$GPGSV,4,3,16,23,02,343,,30,13,275,,32,,,,28,,,*74
$GPGSV,4,4,16,27,,,,26,,,,24,,,,22,,,*79
$GPGGA,213509.7,5556.257169,N,00312.367852,W,1,07,1.2,103.4,M,48.0,M,,*4B
$GPVTG,47.7,T,53.2,M,1.3,N,2.4,K,A*27
$GPRMC,213509.7,A,5556.257169,N,00312.367852,W,1.3,47.7,160313,5.6,W,A*3D
$GPGSA,A,3,02,04,12,14,25,29,31,,,,,,1.9,1.2,1.5*33
$GPGSV,4,1,16,04,07,025,37,25,66,091,35,02,28,060,35,31,52,291,34*72
$GPGSV,4,2,16,12,31,088,32,14,19,217,31,29,60,182,31,23,01,344,*74
$GPGSV,4,3,16,30,11,275,,32,,,,28,,,,27,,,*44
$GPGSV,4,4,16,26,,,,24,,,,22,,,,21,,,*7F
$GPGGA,213510.7,5556.257312,N,00312.367538,W,1,07,1.2,104.3,M,48.0,M,,*4C
$GPVTG,36.5,T,42.1,M,0.9,N,1.8,K,A*24
$GPRMC,213510.7,A,5556.257312,N,00312.367538,W,0.9,36.5,160313,5.6,W,A*35
$GPGSA,A,3,02,04,12,14,25,29,31,,,,,,1.9,1.2,1.5*33
$GPGSV,4,1,16,31,53,289,35,14,18,217,34,29,61,181,34,25,65,092,34*7E
$GPGSV,4,2,16,12,29,090,32,04,07,023,30,02,28,059,23,10,,,*4D
$GPGSV,4,3,16,23,02,343,,30,13,275,,32,,,,28,,,*74
$GPGSV,4,4,16,27,,,,26,,,,24,,,,22,,,*79
$GPGGA,213511.7,5556.257459,N,00312.367138,W,1,07,1.2,104.3,M,48.0,M,,*41
$GPVTG,9.5,T,15.1,M,0.7,N,1.3,K,A*1F
$GPRMC,213511.7,A,5556.257459,N,00312.367138,W,0.7,9.5,160313,5.6,W,A*0A
$GPGSA,A,3,02,04,12,14,25,29,31,,,,,,1.9,1.2,1.5*33
$GPGSV,4,1,16,29,61,181,35,25,65,092,34,12,29,090,34,31,53,289,33*70
$GPGSV,4,2,16,04,07,023,31,14,18,217,31,02,28,059,26,10,,,*43
$GPGSV,4,3,16,23,02,343,,30,13,275,,32,,,,28,,,*74
$GPGSV,4,4,16,27,,,,26,,,,24,,,,22,,,*79
$GPGGA,213512.7,5556.257326,N,00312.366869,W,1,07,1.2,104.4,M,48.0,M,,*46
$GPVTG,nan,T,nan,M,0.0,N,0.0,K,A*23
$GPRMC,213512.7,A,5556.257326,N,00312.366869,W,0.0,nan,160313,5.6,W,A*4E
$GPGSA,A,3,02,04,12,14,25,29,31,,,,,,1.9,1.2,1.5*33
$GPGSV,4,1,16,12,29,090,37,25,65,092,34,02,28,059,34,29,61,181,32*70
$GPGSV,4,2,16,14,18,217,32,04,07,023,31,31,53,289,28,10,,,*4D
$GPGSV,4,3,16,23,02,343,,30,13,275,,32,,,,28,,,*74
$GPGSV,4,4,16,27,,,,26,,,,24,,,,22,,,*79
$GPGGA,213513.7,5556.257310,N,00312.366829,W,1,07,1.2,104.4,M,48.0,M,,*46
$GPVTG,nan,T,nan,M,0.0,N,0.0,K,A*23
$GPRMC,213513.7,A,5556.257310,N,00312.366829,W,0.0,nan,160313,5.6,W,A*4E
$GPGSA,A,3,02,04,12,14,25,29,31,,,,,,1.9,1.2,1.5*33
$GPGSV,4,1,16,29,61,181,35,04,07,023,35,25,65,092,33,02,28,059,33*76
$GPGSV,4,2,16,14,18,217,33,12,29,090,33,31,53,289,31,10,,,*45
$GPGSV,4,3,16,23,02,343,,30,13,275,,32,,,,28,,,*74
$GPGSV,4,4,16,27,,,,26,,,,24,,,,22,,,*79
$GPGGA,213514.7,5556.257212,N,00312.366924,W,1,07,1.2,104.3,M,48.0,M,,*49
$GPVTG,208.6,T,214.2,M,0.8,N,1.5,K,A*26
$GPRMC,213514.7,A,5556.257212,N,00312.366924,W,0.8,208.6,160313,5.6,W,A*0D
$GPGSA,A,3,02,04,12,14,25,29,31,,,,,,1.9,1.2,1.5*33
$GPGSV,4,1,16,12,29,090,38,25,65,092,36,29,61,181,35,31,53,289,35*78
$GPGSV,4,2,16,14,18,217,32,02,28,059,30,04,07,023,29,10,,,*4E
$GPGSV,4,3,16,30,13,275,,32,,,,28,,,,27,,,*46
$GPGSV,4,4,16,26,,,,24,,,,22,,,,21,,,*7F
$GPGGA,213515.7,5556.256908,N,00312.366700,W,1,07,1.2,103.9,M,48.0,M,,*4C
$GPVTG,237.8,T,243.4,M,1.3,N,2.3,K,A*2F
$GPRMC,213515.7,A,5556.256908,N,00312.366700,W,1.3,237.8,160313,5.6,W,A*0D
$GPGSA,A,3,02,04,12,14,25,29,31,,,,,,1.9,1.2,1.5*33
$GPGSV,4,1,16,12,29,090,39,25,65,092,35,31,53,289,34,02,28,059,34*7A
$GPGSV,4,2,16,14,18,217,33,29,61,181,32,04,07,023,27,10,,,*43
$GPGSV,4,3,16,30,13,275,,32,,,,28,,,,27,,,*46
$GPGSV,4,4,16,26,,,,24,,,,22,,,,21,,,*7F
$GPGGA,213516.7,5556.256696,N,00312.367125,W,1,07,1.2,103.9,M,48.0,M,,*47
$GPVTG,227.6,T,233.2,M,1.4,N,2.6,K,A*23
$GPRMC,213516.7,A,5556.256696,N,00312.367125,W,1.4,227.6,160313,5.6,W,A*0E
$GPGSA,A,3,02,04,12,14,25,29,31,,,,,,1.9,1.2,1.5*33
$GPGSV,4,1,16,12,29,090,38,25,65,092,37,14,18,216,35,31,53,289,34*75
$GPGSV,4,2,16,04,07,023,28,29,61,181,28,02,28,059,28,10,,,*41
$GPGSV,4,3,16,30,13,275,,32,,,,28,,,,27,,,*46
$GPGSV,4,4,16,26,,,,24,,,,22,,,,21,,,*7F
$GPGGA,213517.7,5556.256377,N,00312.367456,W,1,07,1.2,103.7,M,48.0,M,,*43
$GPVTG,226.2,T,231.8,M,1.4,N,2.6,K,A*2E
$GPRMC,213517.7,A,5556.256377,N,00312.367456,W,1.4,226.2,160313,5.6,W,A*01
$GPGSA,A,3,02,04,12,14,25,29,31,,,,,,1.9,1.2,1.5*33
$GPGSV,4,1,16,25,66,091,34,12,31,088,34,02,28,060,34,14,19,217,34*72
$GPGSV,4,2,16,31,52,291,33,29,60,182,32,04,07,025,28,23,01,344,*7D
$GPGSV,4,3,16,30,11,275,,32,,,,28,,,,27,,,*44
$GPGSV,4,4,16,26,,,,24,,,,22,,,,21,,,*7F
$GPGGA,213518.7,5556.256018,N,00312.367699,W,1,07,1.2,103.6,M,48.0,M,,*46
$GPVTG,220.2,T,225.8,M,1.3,N,2.5,K,A*29
$GPRMC,213518.7,A,5556.256018,N,00312.367699,W,1.3,220.2,160313,5.6,W,A*04
$GPGSA,A,3,02,04,12,14,25,29,31,,,,,,1.9,1.2,1.5*33
$GPGSV,4,1,16,12,29,090,39,25,65,092,36,14,18,216,34,02,28,059,33*70
$GPGSV,4,2,16,31,53,289,31,29,61,181,31,04,07,023,26,10,,,*4C
$GPGSV,4,3,16,23,02,343,,30,13,275,,32,,,,28,,,*74
$GPGSV,4,4,16,27,,,,26,,,,24,,,,22,,,*79
$GPGGA,213519.7,5556.255735,N,00312.367701,W,1,07,1.2,103.5,M,48.0,M,,*4F
$GPVTG,217.4,T,223.0,M,1.2,N,2.3,K,A*22
$GPRMC,213519.7,A,5556.255735,N,00312.367701,W,1.2,217.4,160313,5.6,W,A*0D
$GPGSA,A,3,02,04,12,14,25,29,31,,,,,,1.9,1.2,1.5*33
$GPGSV,4,1,16,12,29,090,41,25,65,092,34,31,53,289,33,29,61,181,32*75
$GPGSV,4,2,16,14,18,216,30,04,07,023,29,02,28,059,28,10,,,*44
$GPGSV,4,3,16,30,13,275,,32,,,,28,,,,27,,,*46
$GPGSV,4,4,16,26,,,,24,,,,22,,,,21,,,*7F
$GPGGA,213520.7,5556.255552,N,00312.367876,W,1,07,1.2,103.3,M,48.0,M,,*4F
$GPVTG,236.4,T,242.0,M,1.2,N,2.2,K,A*27
$GPRMC,213520.7,A,5556.255552,N,00312.367876,W,1.2,236.4,160313,5.6,W,A*08
$GPGSA,A,3,02,04,12,14,25,29,31,,,,,,1.9,1.2,1.5*33
$GPGSV,4,1,16,12,29,090,35,29,61,181,35,04,07,023,35,25,65,092,33*75
$GPGSV,4,2,16,31,53,289,32,14,18,216,30,02,28,059,29,10,,,*4A
$GPGSV,4,3,16,30,13,275,,32,,,,28,,,,27,,,*46
$GPGSV,4,4,16,26,,,,24,,,,22,,,,21,,,*7F
$GPGGA,213521.7,5556.255283,N,00312.368086,W,1,07,1.2,103.5,M,48.0,M,,*4B
$GPVTG,237.6,T,243.2,M,0.9,N,1.6,K,A*2A
$GPRMC,213521.7,A,5556.255283,N,00312.368086,W,0.9,237.6,160313,5.6,W,A*03
$GPGSA,A,3,02,04,12,14,25,29,31,,,,,,1.9,1.2,1.5*33
$GPGSV,4,1,16,31,53,289,35,29,61,181,35,02,28,059,32,25,65,092,32*73
$GPGSV,4,2,16,12,29,090,32,04,07,023,29,14,18,216,29,10,,,*42
$GPGSV,4,3,16,30,13,275,,32,,,,28,,,,27,,,*46
$GPGSV,4,4,16,26,,,,24,,,,22,,,,21,,,*7F
$GPGGA,213522.7,5556.255158,N,00312.368314,W,1,07,1.2,103.2,M,48.0,M,,*42
$GPVTG,260.2,T,265.8,M,0.5,N,0.9,K,A*20
$GPRMC,213522.7,A,5556.255158,N,00312.368314,W,0.5,260.2,160313,5.6,W,A*07
$GPGSA,A,3,02,04,12,14,25,29,31,,,,,,1.9,1.2,1.5*33
$GPGSV,4,1,16,31,53,289,36,25,65,092,36,02,28,059,34,12,29,090,34*76
$GPGSV,4,2,16,04,06,023,33,29,61,181,33,14,18,216,31,10,,,*45
$GPGSV,4,3,16,30,13,275,,32,,,,28,,,,27,,,*46
$GPGSV,4,4,16,26,,,,24,,,,22,,,,21,,,*7F
$GPGGA,213523.7,5556.254918,N,00312.368310,W,1,07,1.2,103.0,M,48.0,M,,*48
$GPVTG,160.0,T,165.6,M,0.7,N,1.3,K,A*25
$GPRMC,213523.7,A,5556.254918,N,00312.368310,W,0.7,160.0,160313,5.6,W,A*0C
$GPGSA,A,3,02,04,12,14,25,29,31,,,,,,1.9,1.2,1.5*33
$GPGSV,4,1,16,31,53,289,36,25,65,092,36,12,29,090,35,04,06,023,34*70
$GPGSV,4,2,16,29,61,181,33,02,28,059,33,14,18,216,28,10,,,*4A
$GPGSV,4,3,16,32,,,,28,,,,27,,,,26,,,*73
$GPGSV,4,4,16,24,,,,22,,,,21,,,,20,,,*79
$GPGGA,213524.7,5556.254690,N,00312.368536,W,1,07,1.2,102.9,M,48.0,M,,*4A
$GPVTG,217.3,T,222.9,M,0.7,N,1.3,K,A*2A
$GPRMC,213524.7,A,5556.254690,N,00312.368536,W,0.7,217.3,160313,5.6,W,A*06
$GPGSA,A,3,02,04,12,14,25,29,31,,,,,,1.9,1.2,1.5*33
